{"金平路":{"LAT":31.011239,"LINE_NO":5,"LNG":121.410083,"SERIAL_NO":8,"ST_HORIZONTAL":"高架","ST_NAME":"金平路","ST_NAME_EN":"JinpingRoad","ST_NO":510,"TRANSFER_TAG":"普通站","X":"179","Y":"965"},"东川路":{"LAT":31.018154,"LINE_NO":5,"LNG":121.419868,"SERIAL_NO":7,"ST_HORIZONTAL":"高架","ST_NAME":"东川路","ST_NAME_EN":"DongchuanRoad","ST_NO":509,"TRANSFER_TAG":"普通站","X":"217","Y":"981"},"莘庄":{"LAT":31.111232,"LINE_NO":5,"LNG":121.385364,"SERIAL_NO":1,"ST_HORIZONTAL":"高架","ST_NAME":"莘庄","ST_NAME_EN":"Xinzhuang","ST_NO":501,"TRANSFER_TAG":"换乘站","X":"201","Y":"771"},"华宁路":{"LAT":31.007414,"LINE_NO":5,"LNG":121.395234,"SERIAL_NO":9,"ST_HORIZONTAL":"高架","ST_NAME":"华宁路","ST_NAME_EN":"HuaningRoad","ST_NO":511,"TRANSFER_TAG":"普通站","X":"157","Y":"964"},"北桥":{"LAT":31.045109,"LINE_NO":5,"LNG":121.410126,"SERIAL_NO":5,"ST_HORIZONTAL":"高架","ST_NAME":"北桥","ST_NAME_EN":"Beiqiao","ST_NO":507,"TRANSFER_TAG":"普通站","X":"219","Y":"932"},"闵行开发区":{"LAT":31.000572,"LINE_NO":5,"LNG":121.369657,"SERIAL_NO":11,"ST_HORIZONTAL":"高架","ST_NAME":"闵行开发区","ST_NAME_EN":"MinhangDevelopmentZone","ST_NO":513,"TRANSFER_TAG":"普通站","X":"96","Y":"943"},"剑川路":{"LAT":31.026466,"LINE_NO":5,"LNG":121.416563,"SERIAL_NO":6,"ST_HORIZONTAL":"高架","ST_NAME":"剑川路","ST_NAME_EN":"JianchuanRoad","ST_NO":508,"TRANSFER_TAG":"普通站","X":"218","Y":"956"},"文井路":{"LAT":31.003588,"LINE_NO":5,"LNG":121.380858,"SERIAL_NO":10,"ST_HORIZONTAL":"高架","ST_NAME":"文井路","ST_NAME_EN":"WenjingRoad","ST_NO":512,"TRANSFER_TAG":"普通站","X":"126","Y":"963"},"银都路":{"LAT":31.089367,"LINE_NO":5,"LNG":121.390342,"SERIAL_NO":3,"ST_HORIZONTAL":"高架","ST_NAME":"银都路","ST_NAME_EN":"YinduRoad","ST_NO":503,"TRANSFER_TAG":"普通站","X":"219","Y":"885"},"颛桥":{"LAT":31.066983,"LINE_NO":5,"LNG":121.401843,"SERIAL_NO":4,"ST_HORIZONTAL":"高架","ST_NAME":"颛桥","ST_NAME_EN":"Zhuanqiao","ST_NO":505,"TRANSFER_TAG":"普通站","X":"220","Y":"910"},"春申路":{"LAT":31.098114,"LINE_NO":5,"LNG":121.385922,"SERIAL_NO":2,"ST_HORIZONTAL":"高架","ST_NAME":"春申路","ST_NAME_EN":"ChunshenRoad","ST_NO":502,"TRANSFER_TAG":"普通站","X":"218","Y":"861"}}